,City,Country,Date,Cloudiness,Humidity,Latitude,Longitude,Max Temp,Wind Speed
0,Georgetown,GY,2019-11-06,20,94,6.8,-58.16,77.0,4.7
1,Ipatovo,RU,2019-11-06,65,57,45.72,42.92,49.15,6.73
2,Fortuna,US,2019-11-06,90,100,40.6,-124.16,50.0,6.93
3,East London,ZA,2019-11-06,17,93,-33.02,27.91,66.2,5.82
4,Hasaki,JP,2019-11-06,20,39,35.73,140.83,72.0,5.82
5,Kapaa,US,2019-11-06,40,78,22.08,-159.32,82.4,2.3
6,Khatanga,RU,2019-11-06,0,82,71.98,102.47,-5.66,11.9
7,Puerto Del Rosario,ES,2019-11-06,82,60,28.5,-13.86,68.0,12.75
8,Sayyan,YE,2019-11-06,0,44,15.17,44.32,50.31,10.04
9,Avarua,CK,2019-11-06,100,78,-21.21,-159.78,73.4,6.93
10,Fukue,JP,2019-11-06,0,51,35.03,136.69,64.99,4.7
11,Rock Sound,BS,2019-11-06,67,84,24.9,-76.2,80.02,15.35
12,Busselton,AU,2019-11-06,0,33,-33.64,115.35,73.99,8.01
13,Kutum,SD,2019-11-06,0,26,14.2,24.66,64.62,3.29
14,Butaritari,KI,2019-11-06,65,71,3.07,172.79,84.83,9.66
15,Thompson,CA,2019-11-06,75,84,55.74,-97.86,5.0,4.7
16,Dingle,PH,2019-11-06,92,72,11.0,122.67,85.12,15.84
17,Lompoc,US,2019-11-06,1,87,34.64,-120.46,59.0,10.42
18,Ushuaia,AR,2019-11-06,90,98,-54.81,-68.31,35.6,6.93
19,Mar Del Plata,AR,2019-11-06,31,42,-46.43,-67.52,56.77,37.16
20,Sao Filipe,CV,2019-11-06,95,69,14.9,-24.5,77.94,19.51
21,North Bend,US,2019-11-06,90,100,43.41,-124.22,48.99,12.75
22,Vernon,CA,2019-11-06,90,87,50.27,-119.27,42.8,3.36
23,Kodiak,US,2019-11-06,1,72,39.95,-94.76,45.0,9.17
24,Cape Town,ZA,2019-11-06,75,93,-33.93,18.42,62.01,13.87
25,Lavrentiya,RU,2019-11-06,8,81,65.58,-170.99,25.66,12.08
26,Faanui,PF,2019-11-06,10,71,-16.48,-151.75,81.57,6.49
27,Torbay,CA,2019-11-06,90,86,47.66,-52.73,43.0,5.82
28,Garowe,SO,2019-11-06,100,85,8.41,48.48,73.74,4.52
29,Amahai,ID,2019-11-06,50,73,-3.31,129.0,81.12,4.16
30,Port Alfred,ZA,2019-11-06,56,85,-33.59,26.89,64.99,3.0
31,Hilo,US,2019-11-06,1,65,19.71,-155.08,82.4,5.82
32,Tiksi,RU,2019-11-06,80,96,71.64,128.87,-9.75,2.53
33,Cherskiy,RU,2019-11-06,87,75,68.75,161.3,14.32,1.36
34,Mataura,NZ,2019-11-06,80,69,-46.19,168.86,64.0,3.78
35,Xining,CN,2019-11-06,100,70,36.62,101.77,40.17,4.47
36,Kaitangata,NZ,2019-11-06,96,75,-46.28,169.85,55.0,11.01
37,Rundu,NA,2019-11-06,0,60,-17.91,19.77,73.4,8.05
38,Codrington,AU,2019-11-06,0,20,-28.95,153.24,82.4,6.93
39,Aranos,NA,2019-11-06,28,10,-24.14,19.11,71.83,11.3
40,Arraial Do Cabo,BR,2019-11-06,100,93,-22.97,-42.02,74.57,19.08
41,Albany,US,2019-11-06,20,69,42.65,-73.75,45.0,4.7
42,Pevek,RU,2019-11-06,88,79,69.7,170.27,15.67,3.74
43,Puerto Baquerizo Moreno,EC,2019-11-06,62,90,-0.9,-89.6,70.18,11.21
44,Rikitea,PF,2019-11-06,67,77,-23.12,-134.97,77.63,1.41
45,Kharan,PK,2019-11-06,0,40,28.58,65.42,61.88,6.38
46,Monrovia,LR,2019-11-06,72,85,6.33,-10.8,78.1,1.99
47,Waingapu,ID,2019-11-06,64,71,-9.65,120.26,81.55,6.64
48,Beloha,MG,2019-11-06,80,82,-25.17,45.06,71.65,11.48
49,Bayir,TR,2019-11-06,0,93,37.27,28.22,55.4,4.7
50,Ribeira Grande,PT,2019-11-06,100,72,38.52,-28.7,58.39,5.37
51,Saint-Philippe,CA,2019-11-06,90,70,45.36,-73.48,43.0,14.99
52,Smithers,CA,2019-11-06,90,80,54.78,-127.17,35.6,12.75
53,Terrace,CA,2019-11-06,75,93,54.52,-128.61,42.8,1.86
54,Castro,CL,2019-11-06,97,94,-42.48,-73.76,45.01,5.84
55,Sola,TZ,2019-11-06,60,64,-3.17,33.8,68.09,6.8
56,Mehamn,NO,2019-11-06,97,74,71.03,27.85,27.88,8.97
57,Barrow,AR,2019-11-06,0,62,-38.31,-60.23,51.89,9.35
58,Ust-Kut,RU,2019-11-06,100,83,56.78,105.75,14.11,5.06
59,Bogorodskoye,RU,2019-11-06,100,90,52.37,140.44,29.91,9.82
60,Punta Arenas,CL,2019-11-06,75,86,-53.16,-70.91,37.4,19.46
61,Deputatskiy,RU,2019-11-06,29,91,69.3,139.9,-6.09,3.71
62,Grindavik,IS,2019-11-06,90,74,63.84,-22.43,35.6,10.29
63,Kahului,US,2019-11-06,40,62,20.89,-156.47,84.2,4.7
64,Qaanaaq,GL,2019-11-06,0,57,77.48,-69.36,3.61,9.15
65,Victoria,BN,2019-11-06,75,78,5.28,115.24,80.6,9.17
66,Chuy,UY,2019-11-06,0,70,-33.69,-53.46,55.31,4.85
67,Souillac,FR,2019-11-06,0,93,45.6,-0.6,50.0,2.24
68,Isangel,VU,2019-11-06,75,58,-19.55,169.27,84.2,6.93
69,Jamestown,AU,2019-11-06,0,27,-33.21,138.6,75.06,24.05
70,Leningradskiy,RU,2019-11-06,64,79,69.38,178.42,14.99,7.94
71,Saint-Pierre,FR,2019-11-06,75,100,48.95,4.24,46.4,6.93
72,Yanam,IN,2019-11-06,100,70,16.73,82.22,84.2,3.36
73,Yellowknife,CA,2019-11-06,90,78,62.45,-114.38,10.4,2.24
74,Tual,ID,2019-11-06,100,71,-5.67,132.75,81.75,12.46
75,Lagoa,PT,2019-11-06,0,87,37.14,-8.45,55.99,6.93
76,Atuona,PF,2019-11-06,25,78,-9.8,-139.03,80.76,18.92
77,Severo-Kurilsk,RU,2019-11-06,64,81,50.68,156.12,36.14,17.72
78,Port Elizabeth,US,2019-11-06,40,71,39.31,-74.98,55.4,4.7
79,Nikolskoye,RU,2019-11-06,100,55,59.7,30.79,34.0,11.18
80,Bambous Virieux,MU,2019-11-06,40,83,-20.34,57.76,77.0,3.36
81,Kisangani,CD,2019-11-06,100,98,0.52,25.21,68.56,0.58
82,Hermanus,ZA,2019-11-06,88,66,-34.42,19.24,66.99,13.0
83,Santa Marta,CO,2019-11-06,75,78,11.24,-74.21,82.4,3.36
84,New Norfolk,AU,2019-11-06,75,19,-42.78,147.06,66.2,16.11
85,Norman Wells,CA,2019-11-06,75,84,65.28,-126.83,1.4,4.7
86,Samarai,PG,2019-11-06,86,85,-10.62,150.67,79.56,7.92
87,Ambovombe,MG,2019-11-06,71,85,-25.18,46.09,72.5,8.9
88,Galveston,US,2019-11-06,1,80,40.58,-86.19,34.0,5.53
89,Guerrero Negro,MX,2019-11-06,88,76,27.97,-114.04,66.61,11.81
90,Srednekolymsk,RU,2019-11-06,100,94,67.46,153.71,3.31,4.23
91,San Patricio,PY,2019-11-06,0,88,-26.98,-56.83,69.66,8.3
92,Margate,AU,2019-11-06,75,19,-43.03,147.26,66.2,16.11
93,Kavieng,PG,2019-11-06,100,83,-2.57,150.8,81.55,25.39
94,Baykit,RU,2019-11-06,100,94,61.68,96.39,15.1,4.09
95,Saint-Joseph,FR,2019-11-06,33,76,43.56,6.97,54.0,1.12
96,Honiara,SB,2019-11-06,75,55,-9.43,159.96,91.4,5.82
97,Saskylakh,RU,2019-11-06,23,96,71.97,114.09,-10.61,5.48
98,Upernavik,GL,2019-11-06,100,68,72.79,-56.15,17.8,6.04
99,Dongsheng,CN,2019-11-06,100,55,29.72,112.52,63.18,4.9
100,Cap-Chat,CA,2019-11-06,100,95,49.1,-66.68,40.08,8.05
101,Christiansburg,US,2019-11-06,1,66,37.13,-80.41,52.0,4.25
102,Emba,CY,2019-11-06,0,59,34.81,32.42,64.4,10.29
103,Bredasdorp,ZA,2019-11-06,100,87,-34.53,20.04,66.99,5.1
104,Anzoategui,CO,2019-11-06,75,94,4.63,-75.1,75.2,4.7
105,Geraldton,CA,2019-11-06,90,78,49.72,-86.95,15.8,6.93
106,Nurobod,UZ,2019-11-06,0,48,40.91,69.8,37.4,4.7
107,Gat,SN,2019-11-06,0,78,14.69,-16.54,75.2,13.87
108,Nazarovo,RU,2019-11-06,60,71,56.01,90.42,30.83,13.85
109,Bluff,AU,2019-11-06,69,14,-23.58,149.07,82.92,6.02
110,Bathurst,AU,2019-11-06,0,35,-33.42,149.58,68.0,4.0
111,South Charleston,US,2019-11-06,90,81,38.37,-81.7,44.6,3.42
112,Hobart,AU,2019-11-06,75,19,-42.88,147.33,66.2,16.11
113,Jumla,NP,2019-11-06,0,25,29.28,82.18,50.9,1.21
114,Russell,US,2019-11-06,1,65,38.9,-98.86,43.0,11.41
115,Santa Isabel Do Rio Negro,BR,2019-11-06,59,88,-0.41,-65.02,76.44,1.83
116,Bethel,US,2019-11-06,90,100,60.79,-161.76,30.2,11.41
117,Fort Smith,US,2019-11-06,90,59,35.39,-94.42,62.6,4.7
118,Leh,IN,2019-11-06,81,42,34.16,77.58,23.31,3.71
119,Lebu,ET,2019-11-06,1,83,8.96,38.73,47.97,1.63
120,Paamiut,GL,2019-11-06,98,87,61.99,-49.67,32.52,8.46
121,Tiznit,MA,2019-11-06,68,90,29.7,-9.73,52.3,2.95
122,Sao Joao Da Barra,BR,2019-11-06,69,83,-21.64,-41.05,77.43,6.46
123,Vaini,IN,2019-11-06,20,83,15.34,74.49,75.2,3.06
124,Contamana,PE,2019-11-06,55,97,-7.35,-75.01,73.11,1.95
125,Aksarka,RU,2019-11-06,100,86,66.56,67.8,16.72,15.19
126,Road Town,VG,2019-11-06,20,83,18.42,-64.62,81.0,6.93
127,Nong Han,TH,2019-11-06,13,58,17.36,103.11,82.4,4.7
128,Teguise,ES,2019-11-06,20,72,29.06,-13.56,66.2,10.29
129,Atar,MR,2019-11-06,100,38,20.52,-13.05,70.21,10.38
130,Saint-Augustin,CA,2019-11-06,90,89,45.63,-73.98,42.8,9.17
131,Penzance,GB,2019-11-06,91,93,50.12,-5.53,52.0,5.82
132,Ushtobe,KZ,2019-11-06,93,87,45.25,77.98,32.29,4.09
133,Sao Felix Do Xingu,BR,2019-11-06,32,82,-6.64,-51.99,74.95,1.77
134,Tasiilaq,GL,2019-11-06,100,71,65.61,-37.64,32.0,32.21
135,Te Anau,NZ,2019-11-06,6,83,-45.41,167.72,54.28,3.87
136,Santa Luzia,BR,2019-11-06,83,78,-19.77,-43.85,73.4,1.61
137,Buala,SB,2019-11-06,99,68,-8.15,159.59,84.61,5.88
138,Sungaipenuh,ID,2019-11-06,96,47,-2.08,101.38,79.25,2.3
139,Peterhead,AU,2019-11-06,40,55,-34.83,138.5,70.0,25.28
140,Owando,CG,2019-11-06,87,91,-0.49,15.91,70.57,1.5
141,Chokurdakh,RU,2019-11-06,67,96,70.62,147.9,-2.24,3.58
142,Cidreira,BR,2019-11-06,100,79,-30.17,-50.22,67.06,8.99
143,Buchmany,UA,2019-11-06,97,74,51.07,28.04,52.93,10.18
144,Mildura,AU,2019-11-06,9,20,-34.18,142.16,82.4,19.46
145,Mahebourg,MU,2019-11-06,40,83,-20.41,57.7,77.0,3.36
146,Mango,CF,2019-11-06,88,96,4.65,22.36,68.13,1.3
147,Ginda,IN,2019-11-06,0,51,30.69,78.49,57.74,2.21
148,Tuktoyaktuk,CA,2019-11-06,90,92,69.44,-133.03,26.6,23.04
149,Asyut,EG,2019-11-06,0,77,27.18,31.19,59.0,11.41
150,Liyang,CN,2019-11-06,93,52,31.42,119.48,71.01,6.71
151,Matara,BI,2019-11-06,100,76,-3.48,29.48,59.0,4.81
152,Hithadhoo,MV,2019-11-06,67,73,-0.6,73.08,81.99,7.63
153,Poum,MK,2019-11-06,5,80,41.28,20.71,46.63,4.32
154,Belyy Yar,RU,2019-11-06,79,100,53.6,91.39,26.6,2.24
155,Suzun,RU,2019-11-06,0,77,53.78,82.32,29.17,9.8
156,Marsa Matruh,EG,2019-11-06,0,82,31.35,27.25,60.8,6.93
157,Tuatapere,NZ,2019-11-06,52,66,-46.13,167.69,61.43,2.77
158,Salalah,OM,2019-11-06,17,57,17.01,54.1,75.2,3.36
159,Mayna,RU,2019-11-06,100,92,53.0,91.49,38.7,1.21
160,Padang,ID,2019-11-06,68,60,-0.92,100.36,79.36,4.09
161,Sitka,US,2019-11-06,0,69,37.17,-99.65,41.0,10.0
162,Maxixe,MZ,2019-11-06,20,94,-23.86,35.35,75.2,6.71
163,Timra,SE,2019-11-06,27,85,62.49,17.33,24.01,12.75
164,Laela,TZ,2019-11-06,0,68,-8.57,32.05,62.15,4.76
165,Vilhena,BR,2019-11-06,100,91,-12.74,-60.15,72.07,1.05
166,Dikson,RU,2019-11-06,93,82,73.51,80.55,-2.57,11.86
167,Pierre,US,2019-11-06,90,100,44.37,-100.35,30.0,8.05
168,Makakilo City,US,2019-11-06,40,78,21.35,-158.09,80.6,9.17
169,Sobolevo,RU,2019-11-06,100,94,54.43,31.9,47.16,8.7
170,Ambilobe,MG,2019-11-06,100,68,-13.19,49.05,78.22,9.75
171,Cocentaina,ES,2019-11-06,0,51,38.74,-0.44,62.01,18.34
172,Rocha,UY,2019-11-06,0,52,-34.48,-54.34,49.98,5.53
173,Cabo San Lucas,MX,2019-11-06,5,73,22.89,-109.91,81.0,9.17
174,Meulaboh,ID,2019-11-06,83,75,4.14,96.13,81.3,8.97
175,Kaset Sombun,TH,2019-11-06,0,62,16.28,101.95,79.3,3.31
176,Teya,MX,2019-11-06,5,88,21.05,-89.07,81.0,6.93
177,Alofi,NU,2019-11-06,40,57,-19.06,-169.92,78.8,11.41
178,Mitsamiouli,KM,2019-11-06,40,74,-11.38,43.28,80.6,5.82
179,Elat,CM,2019-11-06,4,99,2.91,11.16,66.15,1.45
180,Plettenberg Bay,ZA,2019-11-06,98,60,-34.05,23.37,62.33,4.76
181,Eirunepe,BR,2019-11-06,3,78,-6.66,-69.87,76.15,2.21
182,Shizunai,JP,2019-11-06,57,65,42.33,142.37,38.7,14.47
183,Port Moresby,PG,2019-11-06,75,66,-9.47,147.16,86.0,20.8
184,Talnakh,RU,2019-11-06,100,78,69.49,88.39,10.4,15.66
185,Port-Cartier,CA,2019-11-06,90,93,50.03,-66.88,42.8,9.17
186,Inuvik,CA,2019-11-06,90,78,68.36,-133.71,12.2,2.24
187,Darhan,MN,2019-11-06,0,51,49.49,105.92,30.04,5.23
188,Flin Flon,CA,2019-11-06,79,86,54.77,-101.88,12.78,7.94
189,Bissau,GW,2019-11-06,53,72,11.86,-15.58,78.04,4.41
190,Tura,RU,2019-11-06,100,96,64.27,100.22,0.23,3.42
191,Valparaiso,US,2019-11-06,1,80,41.47,-87.06,33.8,3.36
192,Marsh Harbour,BS,2019-11-06,100,81,26.54,-77.06,79.59,14.85
193,Pisco,PE,2019-11-06,40,82,-13.71,-76.2,64.0,11.41
194,Sioux Lookout,CA,2019-11-06,90,67,50.1,-91.92,17.6,10.29
195,Maryville,US,2019-11-06,75,100,35.76,-83.97,54.0,7.43
196,Novobirilyussy,RU,2019-11-06,100,78,56.95,90.69,29.89,14.56
197,Lishu,CN,2019-11-06,100,24,43.31,124.32,40.89,4.72
198,Pemba,MZ,2019-11-06,40,94,-12.97,40.52,77.0,6.93
199,Bilgi,TR,2019-11-06,18,23,38.1,43.26,32.0,3.36
200,Sinnamary,GF,2019-11-06,0,80,5.38,-52.96,82.13,14.85
201,Watertown,US,2019-11-06,90,85,44.9,-97.12,26.01,3.65
202,Salur,IN,2019-11-06,100,69,18.52,83.21,72.43,2.86
203,Hambantota,LK,2019-11-06,40,94,6.12,81.12,80.6,6.93
204,Killybegs,IE,2019-11-06,90,94,54.63,-8.45,39.0,8.05
205,Mareeba,AU,2019-11-06,75,48,-16.99,145.42,89.01,12.75
206,Rochegda,RU,2019-11-06,100,65,62.67,43.41,23.72,7.25
207,Broken Hill,AU,2019-11-06,1,11,-31.97,141.45,86.0,24.16
208,Husavik,CA,2019-11-06,100,89,50.56,-96.99,18.0,5.01
209,Anarrakhi,GR,2019-11-06,84,81,40.48,21.57,53.01,5.82
210,Tamiahua,MX,2019-11-06,67,80,21.28,-97.45,78.21,7.16
211,Inirida,CO,2019-11-06,100,93,3.87,-67.92,74.62,2.08
212,Strezhevoy,RU,2019-11-06,90,92,60.73,77.6,30.2,4.47
213,Angoche,MZ,2019-11-06,5,96,-16.23,39.91,70.38,4.68
214,Abohar,IN,2019-11-06,0,26,30.15,74.2,74.95,9.71
215,Bubaque,GW,2019-11-06,100,75,11.28,-15.83,84.24,11.81
216,Los Llanos De Aridane,ES,2019-11-06,90,64,28.66,-17.92,69.8,12.75
217,Roebourne,AU,2019-11-06,0,7,-20.77,117.15,105.08,20.24
218,The Valley,AI,2019-11-06,40,74,18.22,-63.06,82.4,12.75
219,Totness,US,2019-11-06,1,93,33.74,-80.8,64.99,4.72
220,Pandan,PH,2019-11-06,100,80,11.72,122.09,82.18,24.34
221,Nichinan,JP,2019-11-06,20,37,31.65,131.31,68.0,4.7
222,Ghanzi,BW,2019-11-06,0,27,-21.7,21.65,75.94,12.1
223,Wanaka,NZ,2019-11-06,72,52,-44.7,169.14,54.57,6.64
224,Katsuura,JP,2019-11-06,20,55,33.93,134.5,64.4,11.41
225,Hohhot,CN,2019-11-06,20,62,40.81,111.65,48.2,4.47
226,Esperance,AU,2019-11-06,90,52,-33.86,121.89,64.4,14.99
227,Kidal,ML,2019-11-06,0,19,18.44,1.41,72.37,1.83
228,Faya,SA,2019-11-06,25,42,18.39,42.45,53.6,7.11
229,Tarko-Sale,RU,2019-11-06,0,91,64.92,77.78,21.0,12.5
230,Victor Harbor,AU,2019-11-06,40,55,-35.55,138.62,66.0,25.28
231,Sorland,NO,2019-11-06,98,71,67.67,12.69,37.58,18.66
232,Port Lincoln,AU,2019-11-06,0,48,-34.72,135.86,65.35,21.12
233,Bulnes,CL,2019-11-06,0,71,-36.74,-72.3,55.0,6.93
234,Sawankhalok,TH,2019-11-06,20,78,17.31,99.83,82.4,2.24
235,Saldanha,PT,2019-11-06,71,90,41.42,-6.55,43.56,8.86
236,Tabou,CI,2019-11-06,0,95,4.42,-7.36,75.2,1.14
237,Airai,TL,2019-11-06,13,40,-8.93,125.41,84.47,8.97
238,Lazaro Cardenas,MX,2019-11-06,40,52,28.39,-105.62,66.99,5.82
239,Puerto Ayora,EC,2019-11-06,11,92,-0.74,-90.35,69.01,5.99
240,Zhangye,CN,2019-11-06,100,36,38.94,100.46,49.73,1.81
241,Bintulu,MY,2019-11-06,75,88,3.17,113.03,78.8,3.36
242,Coihaique,CL,2019-11-06,33,57,-45.58,-72.07,50.0,9.17
243,Kruisfontein,ZA,2019-11-06,63,53,-34.0,24.73,57.18,2.82
244,Portland,US,2019-11-06,75,100,43.66,-70.25,51.01,3.36
245,Kintampo,GH,2019-11-06,54,80,8.05,-1.73,75.06,4.05
246,Fishers,US,2019-11-06,1,69,39.96,-86.01,37.0,3.36
247,Muros,ES,2019-11-06,75,100,42.77,-9.06,54.0,2.24
248,Lasa,CY,2019-11-06,0,59,34.92,32.53,64.4,10.29
249,Susanville,US,2019-11-06,1,48,40.42,-120.65,44.6,3.36
250,Mana,NG,2019-11-06,2,23,13.03,5.27,77.86,6.4
251,Tiarei,PF,2019-11-06,20,70,-17.53,-149.33,84.2,2.24
252,Gannan,CN,2019-11-06,97,22,47.92,123.49,29.98,4.61
253,Valencia,ES,2019-11-06,0,50,39.47,-0.38,59.0,8.05
254,Laguna,BZ,2019-11-06,0,100,16.17,-88.94,73.4,1.9
255,Tilichiki,RU,2019-11-06,100,85,60.47,166.1,35.42,34.38
256,Pangody,RU,2019-11-06,33,87,65.85,74.49,11.35,15.28
257,Biratnagar,NP,2019-11-06,0,67,26.46,87.28,73.63,5.35
258,Cockburn Town,TC,2019-11-06,0,75,21.46,-71.14,82.42,15.7
259,Watsa,CD,2019-11-06,96,97,3.04,29.53,63.63,2.26
260,Lorengau,PG,2019-11-06,100,69,-2.02,147.27,83.73,13.78
261,Kirillov,RU,2019-11-06,90,95,59.86,38.38,32.0,8.95
262,Skarnes,NO,2019-11-06,100,85,60.25,11.68,24.01,5.82
263,Talcahuano,CL,2019-11-06,0,81,-36.72,-73.12,51.8,13.87
264,Kungurtug,RU,2019-11-06,0,64,50.6,97.53,29.88,1.01
265,Longyearbyen,NO,2019-11-06,75,71,78.22,15.63,8.6,2.24
266,Lethem,GY,2019-11-06,0,70,3.38,-59.8,80.58,7.76
267,Rosarito,CO,2019-11-06,75,94,4.91,-75.23,75.2,4.7
268,Alice Springs,AU,2019-11-06,15,7,-23.7,133.88,89.6,10.29
269,Carnarvon,ZA,2019-11-06,33,40,-30.97,22.13,64.65,5.41
270,Coldwater,US,2019-11-06,1,79,41.94,-85.0,30.2,6.53
271,Kangaatsiaq,GL,2019-11-06,85,71,68.31,-53.46,34.11,14.5
272,Beringovskiy,RU,2019-11-06,100,90,63.05,179.32,30.9,6.64
273,Mahajanga,MG,2019-11-06,20,78,-15.72,46.32,77.0,5.82
274,Moose Factory,CA,2019-11-06,75,72,51.26,-80.61,14.0,12.75
275,Basarabeasca,UA,2019-11-06,67,76,46.33,28.97,53.6,5.82
276,Ahipara,NZ,2019-11-06,100,68,-35.17,173.16,75.0,13.09
277,Saint-Louis,SN,2019-11-06,2,65,16.03,-16.5,77.0,9.17
278,Vardo,US,2019-11-06,90,66,39.62,-77.74,52.0,5.82
279,Klaksvik,FO,2019-11-06,100,74,62.23,-6.59,35.6,10.29
280,Provideniya,RU,2019-11-06,2,73,64.42,-173.23,24.8,4.47
281,Namibe,AO,2019-11-06,100,81,-15.19,12.15,73.72,5.21
282,Santa Cruz,BR,2019-11-06,39,79,-6.22,-36.02,71.58,9.24
283,Avera,US,2019-11-06,40,93,33.19,-82.53,64.4,5.48
284,Saint-Francois,FR,2019-11-06,88,93,46.42,3.91,46.4,4.7
285,Novaya Malykla,RU,2019-11-06,100,87,54.21,49.93,45.72,21.9
286,Bathsheba,BB,2019-11-06,40,78,13.22,-59.52,82.4,18.34
287,Camocim,BR,2019-11-06,0,82,-2.9,-40.84,74.46,7.09
288,Christchurch,NZ,2019-11-06,100,87,-43.53,172.64,62.01,9.17
289,Kloulklubed,PW,2019-11-06,75,79,7.04,134.26,84.2,17.22
290,Nanortalik,GL,2019-11-06,27,88,60.14,-45.24,35.29,20.92
291,Maumere,ID,2019-11-06,0,57,-8.63,122.22,84.04,7.09
292,Ostrovnoy,RU,2019-11-06,99,81,68.05,39.51,27.36,6.87
293,Pemberton,AU,2019-11-06,0,48,-34.44,116.03,73.0,4.0
294,Mount Isa,AU,2019-11-06,90,7,-20.73,139.49,93.2,8.05
295,Dauriya,RU,2019-11-06,52,43,49.93,116.85,24.42,15.48
296,La Ronge,CA,2019-11-06,40,72,55.1,-105.3,12.2,11.41
297,Havre-Saint-Pierre,CA,2019-11-06,90,93,50.23,-63.6,42.8,10.29
298,Polovinnoye,RU,2019-11-06,100,87,54.79,65.99,33.48,12.91
299,Narsaq,GL,2019-11-06,92,80,60.91,-46.05,33.8,3.36
300,Iranshahr,IR,2019-11-06,0,37,27.21,60.69,66.2,4.65
301,Humaita,AR,2019-11-06,90,77,-24.93,-65.37,68.0,2.24
302,Protvino,RU,2019-11-06,90,93,54.87,37.22,48.2,8.95
303,Zhezkazgan,KZ,2019-11-06,90,86,47.8,67.71,28.4,8.95
304,Ardakan,IR,2019-11-06,0,49,32.31,54.02,46.4,2.24
305,Vanimo,PG,2019-11-06,51,74,-2.67,141.3,82.22,5.61
306,Llanes,ES,2019-11-06,31,87,43.42,-4.75,54.0,26.78
307,Nemuro,JP,2019-11-06,40,39,43.32,145.57,48.2,11.41
308,Pochutla,MX,2019-11-06,40,74,15.74,-96.47,80.6,3.36
309,Fort Nelson,CA,2019-11-06,5,84,58.81,-122.69,6.8,4.7
310,Wawa,NG,2019-11-06,0,56,9.9,4.41,77.76,1.9
311,Methoni,GR,2019-11-06,86,93,36.82,21.7,64.0,3.36
312,Glendive,US,2019-11-06,90,92,47.11,-104.71,30.99,5.82
313,Atambua,ID,2019-11-06,7,50,-9.11,124.89,88.9,4.16
314,Prince Rupert,CA,2019-11-06,90,93,54.32,-130.32,48.2,5.82
315,Clyde River,CA,2019-11-06,90,92,70.47,-68.59,19.4,10.29
316,Fasa,IR,2019-11-06,0,56,28.94,53.65,44.6,4.7
317,Perevolotskiy,RU,2019-11-06,99,67,51.88,54.19,33.24,16.44
318,Hofn,IS,2019-11-06,100,91,64.25,-15.21,33.22,15.23
319,Santa Maria,BR,2019-11-06,75,73,-16.02,-48.01,75.2,8.05
320,The Pas,CA,2019-11-06,1,66,53.82,-101.24,15.8,14.99
321,Dukat,AL,2019-11-06,100,91,40.25,19.57,64.0,22.79
322,Namatanai,PG,2019-11-06,100,69,-3.66,152.44,84.34,9.28
323,Yaan,NG,2019-11-06,26,91,7.38,8.57,74.34,4.12
324,Yulara,AU,2019-11-06,15,7,-25.24,130.99,89.6,6.93
325,Marzuq,YE,2019-11-06,0,61,14.4,46.47,59.49,0.96
326,Saint George,GR,2019-11-06,20,100,39.45,22.34,51.8,2.13
327,Pirogovo,RU,2019-11-06,100,91,56.78,53.16,42.01,5.01
328,College,US,2019-11-06,1,92,64.86,-147.8,19.0,3.91
329,Brae,GB,2019-11-06,99,74,60.4,-1.35,37.4,9.17
330,Ulaanbaatar,MN,2019-11-06,0,42,47.92,106.92,30.2,4.47
331,Marawi,PH,2019-11-06,49,66,8.0,124.29,84.99,5.01
332,Porto Belo,BR,2019-11-06,75,64,-27.15,-48.54,71.6,6.93
333,Bamboo,JM,2019-11-06,20,74,18.39,-77.27,82.4,6.93
334,Carrollton,US,2019-11-06,1,71,33.58,-85.08,57.0,8.05
335,Conde,BR,2019-11-06,26,78,-11.81,-37.61,78.21,19.8
336,Kalmunai,LK,2019-11-06,74,77,7.42,81.82,79.43,9.64
337,Dongfeng,CN,2019-11-06,62,27,42.67,125.53,41.76,3.06
338,Bermeo,ES,2019-11-06,75,71,43.42,-2.72,57.2,12.75
339,Minna,NG,2019-11-06,2,62,9.62,6.55,74.46,1.99
340,Ancud,CL,2019-11-06,100,87,-41.87,-73.83,50.72,7.92
341,Anadyr,RU,2019-11-06,90,79,64.73,177.51,28.4,4.47
342,Hamilton,CA,2019-11-06,75,69,43.26,-79.87,41.0,8.05
343,Flinders,AU,2019-11-06,0,17,-34.58,150.85,88.0,17.22
344,Tanout,NE,2019-11-06,12,18,14.97,8.88,80.44,9.17
345,Vao,EE,2019-11-06,100,81,59.1,26.19,31.48,7.9
346,Iqaluit,CA,2019-11-06,75,85,63.75,-68.52,19.4,5.82
347,Mehran,IR,2019-11-06,0,65,33.12,46.17,46.4,4.7
348,Abu Zabad,SD,2019-11-06,0,23,12.35,29.25,75.38,11.34
349,Sinjai,ID,2019-11-06,100,65,-5.12,120.25,83.91,7.14
350,Tateyama,JP,2019-11-06,75,51,36.66,137.31,66.0,3.36
351,Bosaso,SO,2019-11-06,11,81,11.28,49.18,82.24,15.97
352,Ouahigouya,BF,2019-11-06,1,24,13.58,-2.42,80.46,5.93
353,Manokwari,ID,2019-11-06,100,75,-0.87,134.08,79.45,5.93
354,La Tuque,CA,2019-11-06,38,95,47.44,-72.79,30.72,6.38
355,Palmer,AU,2019-11-06,40,55,-34.85,139.16,70.0,25.28
356,Dong Hoi,VN,2019-11-06,29,67,17.48,106.6,76.6,5.61
357,Inongo,CD,2019-11-06,99,96,-1.93,18.29,71.53,2.57
358,Qaqortoq,GL,2019-11-06,3,80,60.72,-46.03,33.8,3.36
359,Sidney,US,2019-11-06,75,85,47.72,-104.16,30.2,24.16
360,Maldonado,UY,2019-11-06,0,87,-34.91,-54.96,57.2,6.93
361,Porto Novo,BR,2019-11-06,75,82,-23.68,-45.44,68.0,5.82
362,Pacific Grove,US,2019-11-06,90,93,36.62,-121.92,60.01,7.11
363,Vestmannaeyjar,IS,2019-11-06,100,75,63.44,-20.27,39.25,16.33
364,Mulege,MX,2019-11-06,100,53,26.88,-111.98,74.93,2.1
365,Port Said,EG,2019-11-06,79,33,25.34,30.55,65.68,8.3
366,Byron Bay,AU,2019-11-06,0,36,-28.65,153.62,82.4,17.22
367,Olinda,AU,2019-11-06,75,28,-37.84,145.39,73.0,19.46
368,Mount Gambier,AU,2019-11-06,75,62,-37.83,140.78,59.0,23.04
369,Gizo,IL,2019-11-06,40,77,31.8,34.94,66.99,1.12
370,Zhuhai,CN,2019-11-06,20,68,40.71,112.04,48.2,4.47
371,Barranca,PE,2019-11-06,66,90,-10.75,-77.76,62.82,15.28
372,Rawson,AR,2019-11-06,1,45,-43.3,-65.11,60.62,24.96
373,Half Moon Bay,US,2019-11-06,90,93,37.46,-122.43,64.0,9.17
374,Kharian,PK,2019-11-06,40,64,32.81,73.87,68.0,11.41
375,Pangnirtung,CA,2019-11-06,100,91,66.15,-65.72,19.17,1.34
376,Henties Bay,NA,2019-11-06,0,62,-22.12,14.28,61.41,2.51
377,Mizdah,LY,2019-11-06,0,35,31.45,12.98,64.53,4.21
378,Angoram,PG,2019-11-06,26,58,-4.06,144.07,90.63,1.97
379,Naze,NG,2019-11-06,75,94,5.43,7.07,73.4,2.62
380,Saint Cloud,US,2019-11-06,28,79,45.56,-94.16,26.6,4.52
381,Ovruch,UA,2019-11-06,100,68,51.33,28.8,53.29,8.79
382,Tessalit,ML,2019-11-06,0,22,20.2,1.01,72.88,5.53
383,Guaymas,MX,2019-11-06,100,60,27.92,-110.9,73.0,3.0
384,Okha,RU,2019-11-06,100,95,53.59,142.95,33.51,18.5
385,Lyman,UA,2019-11-06,33,94,48.98,37.82,49.66,7.02
386,Elizabeth City,US,2019-11-06,20,93,36.3,-76.22,62.6,4.41
387,Fershampenuaz,RU,2019-11-06,88,80,53.52,59.82,35.64,20.69
388,Bandarbeyla,SO,2019-11-06,67,77,9.49,50.81,80.31,7.52
389,Adrar,DZ,2019-11-06,0,25,27.87,-0.29,66.2,6.93
390,Ponta Do Sol,BR,2019-11-06,92,85,-20.63,-46.0,69.89,0.63
391,Erenhot,CN,2019-11-06,0,61,43.65,111.97,40.87,11.81
392,Amapa,HN,2019-11-06,20,94,15.09,-87.97,75.2,1.79
393,Buluang,PH,2019-11-06,75,62,10.47,123.98,87.8,14.99
394,Sinazongwe,ZM,2019-11-06,15,53,-17.26,27.46,76.84,10.67
395,Kurumkan,RU,2019-11-06,100,76,54.33,110.32,10.36,1.3
396,Faridpur,BD,2019-11-06,20,83,23.6,89.84,82.4,6.93
397,Buzuluk,RU,2019-11-06,100,78,52.79,52.25,37.44,17.9
398,Betanzos,ES,2019-11-06,82,87,43.28,-8.21,57.0,6.93
399,San Pedro De Ycuamandiyu,PY,2019-11-06,88,88,-24.09,-57.08,72.84,5.23
400,Jasper,US,2019-11-06,1,100,33.83,-87.28,55.0,6.73
401,Whitehorse,CA,2019-11-06,40,85,60.72,-135.06,15.01,12.75
402,Kamakwie,SL,2019-11-06,59,92,9.5,-12.24,72.97,2.46
403,Sampit,ID,2019-11-06,0,40,-2.54,112.95,93.27,5.17
404,Lishui,CN,2019-11-06,0,52,28.45,119.91,67.21,1.81
405,Buraydah,SA,2019-11-06,4,63,26.33,43.97,66.2,8.05
406,Addanki,IN,2019-11-06,92,84,15.81,79.97,78.71,4.9
407,Karpogory,RU,2019-11-06,100,92,64.0,44.44,17.15,3.67
408,Broome,GB,2019-11-06,99,93,52.47,1.45,43.0,5.82
409,Matagami,NG,2019-11-06,0,54,9.67,8.4,68.32,2.84
410,Sept-Iles,CA,2019-11-06,90,93,50.2,-66.38,42.8,9.17
411,Sahuaripa,MX,2019-11-06,100,57,29.05,-109.23,65.89,1.74
412,Aklavik,CA,2019-11-06,90,78,68.22,-135.01,12.2,2.24
413,Myitkyina,MM,2019-11-06,2,66,25.38,97.4,75.09,2.84
414,Borgarnes,IS,2019-11-06,100,64,64.54,-21.92,33.8,13.87
415,Hualmay,PE,2019-11-06,26,83,-11.1,-77.61,61.11,2.84
416,Martapura,ID,2019-11-06,19,34,-3.41,114.85,94.32,5.86
417,Urucara,BR,2019-11-06,7,64,-2.54,-57.76,81.43,2.42
418,Yerbogachen,RU,2019-11-06,100,86,61.28,108.01,1.36,7.99
419,Borovoy,RU,2019-11-06,100,79,63.23,52.89,21.2,6.17
420,Bilibino,RU,2019-11-06,100,85,68.06,166.44,9.93,3.33
421,Naco,MX,2019-11-06,1,39,31.32,-109.94,64.4,6.93
422,Boyolangu,ID,2019-11-06,10,44,-8.09,111.9,89.06,9.91
423,Hami,CN,2019-11-06,97,22,42.84,93.51,55.29,9.93
424,Vila,IT,2019-11-06,75,100,45.18,8.4,51.01,8.05
425,Ugljevik,BA,2019-11-06,75,87,44.69,18.99,57.2,13.87
426,Yazman,SY,2019-11-06,0,54,36.74,38.46,58.51,7.72
427,Zimovniki,RU,2019-11-06,50,66,47.15,42.46,48.76,6.51
428,Boa Vista,BR,2019-11-06,23,78,2.82,-60.67,78.8,5.82
429,Ilulissat,GL,2019-11-06,94,71,69.22,-51.1,18.99,4.32
430,Tumkur,IN,2019-11-06,98,78,13.34,77.1,75.2,1.12
431,Karpathos,GR,2019-11-06,0,80,35.51,27.21,71.06,13.58
432,Noumea,NC,2019-11-06,75,88,-22.28,166.46,71.6,6.93
433,Sisimiut,GL,2019-11-06,100,76,66.94,-53.67,22.39,3.67
434,Gamba,CN,2019-11-06,0,31,28.28,88.52,32.4,3.62
435,Hervey Bay,AU,2019-11-06,24,26,-25.3,152.85,82.0,13.87
436,Kaoma,ZM,2019-11-06,1,60,-14.8,24.8,65.3,3.74
437,Constantine,DZ,2019-11-06,75,76,36.36,6.61,53.6,8.05
438,Koumac,NC,2019-11-06,88,61,-20.56,164.28,77.59,6.58
439,Sabang,PH,2019-11-06,96,85,13.8,121.11,84.0,7.0
440,Nalgonda,IN,2019-11-06,76,76,17.05,79.27,78.58,2.84
441,Mukhen,RU,2019-11-06,100,61,48.19,136.14,24.84,12.28
442,Nishihara,JP,2019-11-06,20,59,35.74,139.53,71.01,4.7
443,Misratah,LY,2019-11-06,0,60,32.38,15.09,74.95,15.03
444,Taltal,CL,2019-11-06,6,83,-25.41,-70.49,53.4,2.1
445,Port Blair,IN,2019-11-06,14,80,11.67,92.75,82.09,17.16
446,Ironton,US,2019-11-06,1,100,38.54,-82.68,42.8,3.4
447,Ponferrada,ES,2019-11-06,89,83,42.55,-6.59,48.99,6.58
448,San Cristobal,HN,2019-11-06,6,94,14.68,-86.92,64.9,2.26
449,Ilhabela,BR,2019-11-06,100,93,-23.78,-45.36,74.07,14.81
450,Omsukchan,RU,2019-11-06,100,95,62.53,155.8,19.67,13.6
451,Gigmoto,PH,2019-11-06,0,70,13.78,124.39,84.09,3.44
452,Kargat,RU,2019-11-06,51,79,55.19,80.28,26.6,16.26
453,Bungu,TZ,2019-11-06,78,95,-7.63,39.06,72.55,4.47
454,Abilene,US,2019-11-06,1,76,32.45,-99.73,55.4,6.29
455,Fallon,US,2019-11-06,90,86,46.84,-105.12,30.99,11.41
456,Adeje,NG,2019-11-06,100,95,5.68,5.76,75.24,1.66
457,Voh,NC,2019-11-06,39,80,-20.95,164.69,74.39,13.2
458,Inverell,AU,2019-11-06,0,18,-29.78,151.11,75.99,8.01
459,La Paz,MX,2019-11-06,40,78,24.15,-110.32,77.0,6.29
460,Morada Nova,BR,2019-11-06,0,82,-5.1,-38.37,73.69,7.76
461,Viransehir,TR,2019-11-06,0,58,37.24,39.76,58.14,5.68
462,Nouadhibou,MR,2019-11-06,0,72,20.93,-17.03,68.0,20.8
463,Katherine,AU,2019-11-06,44,14,-14.47,132.26,102.2,10.29
464,Nzerekore,GN,2019-11-06,18,95,7.76,-8.82,68.72,0.65
465,Batagay-Alyta,RU,2019-11-06,96,94,67.8,130.41,-4.82,2.37
466,Ouallam,NE,2019-11-06,0,17,14.32,2.08,80.22,3.42
467,Torrington,US,2019-11-06,1,80,42.06,-104.18,46.4,4.7
468,Locri,IT,2019-11-06,20,77,38.24,16.26,66.2,4.7
469,Oussouye,SN,2019-11-06,40,88,12.49,-16.54,82.4,6.93
470,Olot,ES,2019-11-06,0,93,42.18,2.49,54.0,5.82
471,Camacupa,AO,2019-11-06,99,95,-12.02,17.48,61.09,3.09
472,Taoudenni,ML,2019-11-06,100,27,22.68,-3.98,75.29,8.14
473,El Tigre,VE,2019-11-06,99,81,8.89,-64.25,76.64,11.65
474,Abapo,BO,2019-11-06,100,92,-18.83,-63.47,69.19,4.21
475,Verkhnyaya Inta,RU,2019-11-06,81,89,65.99,60.32,16.79,17.78
476,Tamandare,BR,2019-11-06,0,68,-8.28,-70.75,76.28,2.84
477,Kavaratti,IN,2019-11-06,40,79,10.57,72.64,84.2,6.93
478,Jawhar,IN,2019-11-06,0,73,19.91,73.23,77.34,1.05
479,Port-Gentil,GA,2019-11-06,99,81,-0.72,8.78,79.77,6.22
480,Layton,US,2019-11-06,1,45,41.08,-111.97,46.99,3.36
481,Tommot,RU,2019-11-06,100,91,58.97,126.27,0.66,9.33
482,Petatlan,MX,2019-11-06,40,74,17.52,-101.27,82.4,3.78
483,Batemans Bay,AU,2019-11-06,27,28,-35.71,150.18,73.0,5.01
484,Beian,NO,2019-11-06,75,85,63.66,9.57,26.01,6.93
485,Alencon,FR,2019-11-06,49,100,48.43,0.08,48.0,2.24
486,Asasa,ET,2019-11-06,44,89,7.1,39.2,46.63,5.82
487,Qasigiannguit,GL,2019-11-06,94,71,68.82,-51.19,18.99,4.32
488,Araquari,BR,2019-11-06,75,73,-26.37,-48.72,71.6,6.93
489,La Palma,CO,2019-11-06,100,98,5.36,-74.39,69.55,1.14
490,Alihe,CN,2019-11-06,100,40,50.57,123.73,16.5,9.95
491,Kolomak,UA,2019-11-06,22,88,49.84,35.31,49.23,9.95
492,Luderitz,NA,2019-11-06,0,93,-26.65,15.16,60.8,13.87
493,Takayama,JP,2019-11-06,75,51,36.14,137.25,66.0,3.36
494,Minab,IR,2019-11-06,0,68,27.15,57.07,71.6,4.7
495,Praia Da Vitoria,PT,2019-11-06,75,77,38.73,-27.07,60.8,7.67
496,Assiniboia,CA,2019-11-06,100,85,49.63,-105.99,16.86,17.07
497,Caravelas,BR,2019-11-06,7,92,-17.73,-39.27,71.71,8.75
498,Sault Sainte Marie,CA,2019-11-06,40,63,46.49,-84.36,26.6,14.99
499,Cardston,CA,2019-11-06,90,85,49.2,-113.32,17.6,13.87
500,Waddan,LY,2019-11-06,0,32,29.16,16.14,70.72,9.46
501,Jiblah,YE,2019-11-06,0,54,13.92,44.15,60.51,2.51
502,Tahe,CN,2019-11-06,0,57,52.34,124.71,10.54,15.17
503,Sorong,ID,2019-11-06,91,80,-0.86,131.25,81.16,5.73
504,Kirkwall,GB,2019-11-06,100,86,58.98,-2.96,39.2,13.18
505,Bjornevatn,NO,2019-11-06,20,92,69.67,29.98,14.0,5.82
506,Trairi,BR,2019-11-06,58,81,-3.28,-39.27,76.32,9.19
507,Dunedin,NZ,2019-11-06,99,74,-45.87,170.5,54.0,14.0
508,Harper,US,2019-11-06,1,93,30.3,-99.24,70.0,5.23
509,Pakxan,LA,2019-11-06,3,58,18.39,103.66,79.7,2.46
510,Trelew,AR,2019-11-06,3,32,-43.25,-65.31,61.12,29.17
511,Longyan,CN,2019-11-06,0,43,25.1,117.03,70.72,2.91
512,Quchan,IR,2019-11-06,0,47,37.11,58.51,33.1,4.45
513,Sarangani,PH,2019-11-06,22,69,5.4,125.46,84.52,14.43
514,San Ramon De La Nueva Oran,AR,2019-11-06,100,73,-23.13,-64.33,68.07,2.53
515,Kibiti,TZ,2019-11-06,78,95,-7.72,38.94,72.55,4.47
516,Keetmanshoop,NA,2019-11-06,60,26,-26.57,18.15,71.6,12.75
517,Butzbach,DE,2019-11-06,75,100,50.43,8.67,46.99,4.7
518,Mae Sai,MM,2019-11-06,75,88,20.44,99.89,77.0,3.36
519,Porangatu,BR,2019-11-06,100,90,-13.44,-49.14,75.15,1.68
520,Aksu,KZ,2019-11-06,0,92,52.04,76.93,24.8,6.71
521,Whitianga,NZ,2019-11-06,100,57,-36.83,175.7,75.99,1.01
522,Radnevo,BG,2019-11-06,5,100,42.29,25.93,62.01,2.24
523,Vila Franca Do Campo,PT,2019-11-06,75,72,37.72,-25.43,60.8,1.12
524,Petropavl,KZ,2019-11-06,90,80,54.87,69.13,33.8,15.66
525,Vostok,RU,2019-11-06,100,77,46.45,135.83,19.13,10.11
526,George Town,MY,2019-11-06,75,66,5.42,100.33,87.8,5.82
527,Fairbanks,US,2019-11-06,1,92,64.84,-147.72,19.0,2.33
528,Carauari,BR,2019-11-06,79,88,-4.88,-66.9,76.39,1.19
529,Waipawa,NZ,2019-11-06,100,62,-39.94,176.59,68.0,8.99
530,Brenham,US,2019-11-06,1,88,30.17,-96.4,73.4,4.7
531,Jalu,LY,2019-11-06,0,41,29.03,21.55,65.95,4.54
532,Nokaneng,BW,2019-11-06,0,30,-19.66,22.19,76.01,4.45
533,Biak,ID,2019-11-06,70,73,-0.91,122.88,81.48,14.88
534,Raudeberg,NO,2019-11-06,100,69,61.99,5.14,37.0,8.05
535,Tucuman,PE,2019-11-06,100,59,-17.17,-70.89,55.94,0.49
